[
    {
        "id": "aachenerweiher",
        "name": "Aachener Weiher parkrun",
        "city": "Köln, NRW",
        "googlemaps": "https://maps.app.goo.gl/gktwZJVrqsirFma7A",
        "first": "23.03.2019"
    },
    {
        "id": "allerpark",
        "name": "Allerpark parkrun",
        "city": "Wolfsburg, NDS",
        "googlemaps": "https://maps.app.goo.gl/viU3mCPcVfMiLb8RA",
        "first": "11.12.2021"
    },
    {
        "id": "alstervorland",
        "name": "Alstervorland parkrun",
        "city": "Hamburg, HH",
        "googlemaps": "https://maps.app.goo.gl/nzFz8ds8yBCSPq9aA",
        "first": "12.01.2019"
    },
    {
        "id": "bahnstadtpromenade",
        "name": "Bahnstadt Promenade parkrun",
        "city": "Heidelberg, BW",
        "googlemaps": "https://maps.app.goo.gl/y9xjkARDxHbwaRd3A",
        "first": "30.09.2023"
    },
    {
        "id": "bugasee",
        "name": "Bugasee parkrun",
        "city": "Kassel, HE",
        "googlemaps": "https://maps.app.goo.gl/nQAYeuPuELrezZC49",
        "first": "02.08.2019"
    },
    {
        "id": "dietenbach",
        "name": "Dietenbach parkrun",
        "city": "Freiburg, BW",
        "googlemaps": "https://maps.app.goo.gl/8mjy464YdjBKqmR1A",
        "first": "23.10.2021"
    },
    {
        "id": "dreilaendergarten",
        "name": "Dreiländergarten parkrun",
        "city": "Weil am Rhein, BW",
        "googlemaps": "https://maps.app.goo.gl/Ncezh996xdM6YnrV9",
        "first": "11.09.2021"
    },
    {
        "id": "ebenberg",
        "name": "Ebenberg parkrun",
        "city": "Landau in der Pfalz, RLP",
        "googlemaps": "https://maps.app.goo.gl/v2oDppZt5VDkqc868",
        "first": "09.09.2023"
    },
    {
        "id": "ehrenbreitstein",
        "name": "Ehrenbreitstein parkrun",
        "city": "Koblenz, RLP",
        "googlemaps": "https://maps.app.goo.gl/VCdwKTUdxT8K7JvWA",
        "first": "13.01.2024"
    },
    {
        "id": "emmerwiesen",
        "name": "Emmerwiesen parkrun",
        "city": "Bad Pyrmont, NDS",
        "googlemaps": "https://maps.app.goo.gl/MRUt6XqQgeMErnXP9",
        "first": "17.06.2023"
    },
    {
        "id": "friedrichsau",
        "name": "Friedrichsau parkrun",
        "city": "Ulm, BW",
        "googlemaps": "https://maps.app.goo.gl/DJJZCmyTZC2JT6ks8",
        "first": "26.03.2022"
    },
    {
        "id": "fuldaaue",
        "name": "Fuldaaue parkrun",
        "city": "Fulda, HE",
        "googlemaps": "https://maps.app.goo.gl/ik8YRD92dfJ4EMRe7",
        "first": "07.05.2022"
    },
    {
        "id": "georgengarten",
        "name": "Georgengarten parkrun",
        "city": "Hannover, NDS",
        "googlemaps": "https://maps.app.goo.gl/viMQE7RHzjhz5u8L7",
        "first": "02.12.2017"
    },
    {
        "id": "globe",
        "name": "Globe parkrun",
        "city": "Schwäbisch Hall, BW",
        "googlemaps": "https://maps.app.goo.gl/4rv49Tm1inbFd76h8",
        "first": "28.09.2019"
    },
    {
        "id": "gruenerweg",
        "name": "Grüner Weg parkrun",
        "city": "Bad Urach, BW",
        "googlemaps": "https://maps.app.goo.gl/nta1yjbphkXFtf4E9",
        "first": "30.11.2019"
    },
    {
        "id": "hasenheide",
        "name": "Hasenheide parkrun",
        "city": "Berlin, BE",
        "googlemaps": "https://maps.app.goo.gl/WBznzk2a3TKsjEFD6",
        "first": "06.01.2018"
    },
    {
        "id": "havelkanal",
        "name": "Havelkanal parkrun",
        "city": "Hennigsdorf, BB",
        "googlemaps": "https://maps.app.goo.gl/7TUSEr1KyoRxbmfQ8",
        "first": "22.04.2023"
    },
    {
        "id": "hockgraben",
        "name": "Hockgraben parkrun",
        "city": "Konstanz, BW",
        "googlemaps": "https://maps.app.goo.gl/yGYerpCpG2gbG8nd9",
        "first": "14.08.2021"
    },
    {
        "id": "kastanienallee",
        "name": "Kastanienallee parkrun",
        "city": "Tübingen, BW",
        "googlemaps": "https://maps.app.goo.gl/iWmCZSdtF4TguKFGA",
        "first": "16.10.2021"
    },
    {
        "id": "kemnadersee",
        "name": "Kemnader See parkrun",
        "city": "Bochum, NRW",
        "googlemaps": "https://maps.app.goo.gl/jAP4ZGfDcFScpHK89",
        "first": "15.10.2022"
    },
    {
        "id": "kiessee",
        "name": "Kiessee parkrun",
        "city": "Göttingen, NDS",
        "googlemaps": "https://maps.app.goo.gl/dgFaKHnqUWrt5XFE6",
        "first": "18.05.2019"
    },
    {
        "id": "kraeherwald",
        "name": "Kräherwald parkrun",
        "city": "Stuttgart, BW",
        "googlemaps": "https://maps.app.goo.gl/SQtTyVHupKn5FDZn9",
        "first": "05.05.2018"
    },
    {
        "id": "kuechenholz",
        "name": "Küchenholz parkrun",
        "city": "Leipzig, SN",
        "googlemaps": "https://maps.app.goo.gl/DgogwFVSrqU281Le6",
        "first": "02.12.2017"
    },
    {
        "id": "kurtschumacherpromenade",
        "name": "Kurt-Schumacher-Promenade parkrun",
        "city": "Würzburg, BY",
        "googlemaps": "https://maps.app.goo.gl/GKDejRda5ir2WcJv5",
        "first": "08.02.2020"
    },
    {
        "id": "lahnwiesen",
        "name": "Lahnwiesen parkrun",
        "city": "Marburg, HE",
        "googlemaps": "https://maps.app.goo.gl/DpW4Xuzr9VbGQAak9",
        "first": "07.03.2020"
    },
    {
        "id": "landesgartenschaupark",
        "name": "Landesgartenschau Park parkrun",
        "city": "Neumarkt in der Oberpfalz, BY",
        "googlemaps": "https://maps.app.goo.gl/KvWPa2Q6yRED86jz9",
        "first": "04.09.2021"
    },
    {
        "id": "leinpfad",
        "name": "Leinpfad parkrun",
        "city": "Merzig, SL",
        "googlemaps": "https://maps.app.goo.gl/efT8fKk5bDpnvWbL7",
        "first": "05.01.2019"
    },
    {
        "id": "lousberg",
        "name": "Lousberg parkrun",
        "city": "Aachen, NRW",
        "googlemaps": "https://maps.app.goo.gl/ihumiC3xKAa16hHW9",
        "first": "20.01.2024"
    },
    {
        "id": "luitpold",
        "name": "Luitpold parkrun",
        "city": "Ingolstadt, BY",
        "googlemaps": "https://maps.app.goo.gl/w2UxEFGWBuhQq9X68",
        "first": "11.05.2019"
    },
    {
        "id": "maaraue",
        "name": "Maaraue parkrun",
        "city": "Mainz, RLP",
        "googlemaps": "https://maps.app.goo.gl/Tf5cqkQzHoFY8kHd7",
        "first": "30.10.2021"
    },
    {
        "id": "mattheiserweiher",
        "name": "Mattheiser Weiher parkrun",
        "city": "Trier, RLP",
        "googlemaps": "https://maps.app.goo.gl/FstemrgLn3XZFjJM9",
        "first": "15.07.2023"
    },
    {
        "id": "monrepos",
        "name": "Monrepos parkrun",
        "city": "Ludwigsburg, BW",
        "googlemaps": "https://maps.app.goo.gl/oQUjxeNSkL2HymFe6",
        "first": "01.06.2019"
    },
    {
        "id": "neckarau",
        "name": "Neckarau parkrun",
        "city": "Mannheim, BW",
        "googlemaps": "https://maps.app.goo.gl/y2mf1JWysMn9GvXy5",
        "first": "02.12.2017"
    },
    {
        "id": "neckaruferesslingen",
        "name": "Neckarufer parkrun",
        "city": "Esslingen, BW",
        "googlemaps": "https://maps.app.goo.gl/tEqiJTSJQbGUWsFA9",
        "first": "06.04.2019"
    },
    {
        "id": "nidda",
        "name": "Nidda parkrun",
        "city": "Frankfurt am Main, HE",
        "googlemaps": "https://maps.app.goo.gl/fUvUWeqBp8eGbKBC7",
        "first": "06.01.2018"
    },
    {
        "id": "obersee",
        "name": "Obersee parkrun",
        "city": "Bielefeld, NRW",
        "googlemaps": "https://maps.app.goo.gl/VjyTtqHZFTGVKBft6",
        "first": "09.10.2021"
    },
    {
        "id": "oberwald",
        "name": "Oberwald parkrun",
        "city": "Karlsruhe, BW",
        "googlemaps": "https://maps.app.goo.gl/VCS8PPaw2bUiKNWE9",
        "first": "25.01.2020"
    },
    {
        "id": "offenthal",
        "name": "Offenthal parkrun",
        "city": "Offenthal, HE",
        "googlemaps": "https://maps.app.goo.gl/dW7WQaySgG5ibDau6",
        "first": "13.11.2021"
    },
    {
        "id": "prestelsee",
        "name": "Prestelsee parkrun",
        "city": "Graben-Neudorf, BW",
        "googlemaps": "https://maps.app.goo.gl/mVWfRAqjsD844Kg29",
        "first": ""
    },
    {
        "id": "priessnitzgrund",
        "name": "Prießnitzgrund parkrun",
        "city": "Dresden, SN",
        "googlemaps": "https://maps.app.goo.gl/Cgw3ePYLSQDyszMCA",
        "first": "09.07.2022"
    },
    {
        "id": "prinzenpark",
        "name": "Prinzenpark parkrun",
        "city": "Braunschweig, NDS",
        "googlemaps": "https://maps.app.goo.gl/k9zPGx8kCegMLnGv9",
        "first": "14.05.2022"
    },
    {
        "id": "rheinaue",
        "name": "Rheinaue parkrun",
        "city": "Bonn, NRW",
        "googlemaps": "https://maps.app.goo.gl/4Bd7qpAdVLnNY7ZW6",
        "first": "02.02.2019"
    },
    {
        "id": "rheinpark",
        "name": "Rheinpark parkrun",
        "city": "Köln, NRW",
        "googlemaps": "https://maps.app.goo.gl/oK7jMizoDhZYB1oB8",
        "first": "18.09.2021"
    },
    {
        "id": "riemer",
        "name": "Riemer parkrun",
        "city": "München, BY",
        "googlemaps": "https://maps.app.goo.gl/fLJzPER422ezkUu78",
        "first": "29.06.2019"
    },
    {
        "id": "rosensteinpark",
        "name": "Rosensteinpark parkrun",
        "city": "Stuttgart, BW",
        "googlemaps": "https://maps.app.goo.gl/VzhGMisjcrWnm5WD8",
        "first": "04.06.2022"
    },
    {
        "id": "rubbenbruchsee",
        "name": "Rubbenbruchsee parkrun",
        "city": "Osnabrück, NDS",
        "googlemaps": "https://maps.app.goo.gl/7NuAQshN5EHZ6phV8",
        "first": "13.01.2018"
    },
    {
        "id": "schwanenteich",
        "name": "Schwanenteich parkrun",
        "city": "Giessen, HE",
        "googlemaps": "https://maps.app.goo.gl/LE4RJQJokrC3kndR7",
        "first": "29.09.2018"
    },
    {
        "id": "seewoog",
        "name": "Seewoog parkrun",
        "city": "Ramstein-Miesenbach, RLP",
        "googlemaps": "https://maps.app.goo.gl/3FBjKEi8M2Q6VzUG8",
        "first": "15.09.2018"
    },
    {
        "id": "speyerleinpfad",
        "name": "Speyer Leinpfad parkrun",
        "city": "Speyer, RLP",
        "googlemaps": "https://maps.app.goo.gl/KgYAvV7jUTGeCYW1A",
        "first": "30.11.2019"
    },
    {
        "id": "sportparkrems",
        "name": "Sportpark Rems parkrun",
        "city": "Schorndorf, BW",
        "googlemaps": "https://maps.app.goo.gl/NeoaGX9k8WEhoPDTA",
        "first": "17.07.2021"
    },
    {
        "id": "stadtpark",
        "name": "Stadtpark parkrun",
        "city": "Fürth, BY",
        "googlemaps": "https://maps.app.goo.gl/AMUEyC33WRPzDybZA",
        "first": "06.05.2023"
    },
    {
        "id": "traumschleifebaerenbachpfad",
        "name": "Traumschleife Bärenbachpfad parkrun",
        "city": "Baumholder, RLP",
        "googlemaps": "https://maps.app.goo.gl/oWZkfCJYRJ8nDfKD6",
        "first": "17.09.2022"
    },
    {
        "id": "unisee",
        "name": "Unisee parkrun",
        "city": "Bremen, HB",
        "googlemaps": "https://maps.app.goo.gl/GorNnFc7GRfLrBxU7",
        "first": "08.06.2019"
    },
    {
        "id": "volksgarten",
        "name": "Volksgarten parkrun",
        "city": "Düsseldorf, NRW",
        "googlemaps": "https://maps.app.goo.gl/4xX1KDT7zCbQbkXGA",
        "first": "04.05.2019"
    },
    {
        "id": "wertwiesen",
        "name": "Wertwiesen parkrun",
        "city": "Heilbronn, BW",
        "googlemaps": "https://maps.app.goo.gl/zgxhJuvV14fcEroe6",
        "first": "15.07.2023"
    },
    {
        "id": "westpark",
        "name": "Westpark parkrun",
        "city": "München, BY",
        "googlemaps": "https://maps.app.goo.gl/FhZErPa2jXv4esQs5",
        "first": "19.01.2019"
    },
    {
        "id": "wienburgpark",
        "name": "Wienburgpark parkrun",
        "city": "Münster, NRW",
        "googlemaps": "https://maps.app.goo.gl/7gTE7B9EiWN9rDyL6",
        "first": "12.03.2022"
    },
    {
        "id": "woehrdersee",
        "name": "Wöhrder See parkrun",
        "city": "Nürnberg, BY",
        "googlemaps": "https://maps.app.goo.gl/1u1SCvAM9LvBZhWy8",
        "first": "14.04.2018"
    },
    {
        "id": "ziegelwiese",
        "name": "Ziegelwiese parkrun",
        "city": "Halle (Saale), ST",
        "googlemaps": "https://maps.app.goo.gl/m8aqqhcobHdKk61A6",
        "first": "19.10.2019"
    },
    {
        "id": "pieschenerallee",
        "name": "Pieschener Allee parkrun",
        "city": "Leipzig, SN",
        "googlemaps": "https://maps.app.goo.gl/1WzEpcaCRtcwfqoU7",
        "first": "17.11.2018",
        "status": "geschlossen",
        "coordinates": "51.063731 13.727762"
    },
    {
        "id": "kurpark",
        "name": "Kurpark parkrun",
        "city": "Bad Liebenzell, BW",
        "googlemaps": "https://maps.app.goo.gl/P3RZGEMNjNg2XzUn7",
        "first": "",
        "status": "geschlossen",
        "coordinates": "48.769287 8.731631"
    },
    {
        "id": "roethelheimpark",
        "name": "Röthelheimpark parkrun",
        "city": "Erlangen, BY",
        "googlemaps": "https://maps.app.goo.gl/52mY6QozPPpm2MHu8",
        "first": "",
        "status": "geschlossen",
        "coordinates": "49.587304 11.027033"
    },
    {
        "id": "wittelsbacherpark",
        "name": "Wittelsbacher Park parkrun",
        "city": "Augsburg, BY",
        "googlemaps": "https://maps.app.goo.gl/71auEwp1fT4CQW1AA",
        "first": "",
        "status": "geschlossen",
        "coordinates": "48.358180 10.882256"
    }
]